{
  "atms": [
    {
      "id": "1",
      "branchId": "1",
      "name": "GRAND YOFF",
      "address": {
        "country": "SENEGAL",
        "region": "DAKAR",
        "postalCode": "700000",
        "streetAddress": "Grand Yoff, Scat urbam",
        "location": {
          "lat": 14.733135,
          "lng": -17.455969
        }
      },
      "status": "ACTIF",
      "services": "Guichets automatique multifonction;Western Union",
      "lng": -17.455969,
      "lat": 14.733135,
      "liquidity": true
    },
    {
      "id": "2",
      "branchId": "1",
      "name": "ALMADIES",
      "address": {
        "country": "SENEGAL",
        "region": "DAKAR",
        "postalCode": "700000",
        "streetAddress": "Route des Almadies x Rte de l'Aéroport",
        "location": {
          "lat": 14.739367,
          "lng": -17.509592
        }
      },
      "status": "ACTIF",
      "services": "Guichets automatique multifonction;Western Union",
      "lng": -17.509592,
      "lat": 14.739367,
      "liquidity": true
    },
    {
      "id": "3",
      "branchId": "1",
      "name": "AUTOPORT",
      "address": {
        "country": "SENEGAL",
        "region": "DAKAR",
        "postalCode": "700000",
        "streetAddress": "Boulevard de la libération (Station TOTAL Autoport)",
        "location": {
          "lat": 14.67416,
          "lng": -17.43213
        }
      },
      "status": "ACTIF",
      "services": "Guichets automatique multifonction;Western Union",
      "lng": -17.43213,
      "lat": 14.67416,
      "liquidity": true
    },
    {
      "id": "4",
      "branchId": "1",
      "name": "CAMBERENE",
      "address": {
        "country": "SENEGAL",
        "region": "DAKAR",
        "postalCode": "700000",
        "streetAddress": "Case des Parcelles Assainies",
        "location": {
          "lat": 14.75738,
          "lng": -17.42863
        }
      },
      "status": "ACTIF",
      "services": "Guichets automatique multifonction;Western Union",
      "lng": -17.42863,
      "lat": 14.75738,
      "liquidity": true
    },
    {
      "id": "5",
      "branchId": "1",
      "name": "KEDOUGOU",
      "address": {
        "country": "SENEGAL",
        "region": "KEDOUGOU",
        "postalCode": "700000",
        "streetAddress": "ROND POINT KEDOUGOU",
        "location": {
          "lat": 34.75738,
          "lng": -12.42863
        }
      },
      "status": "ACTIF",
      "services": "Guichets automatique multifonction;Western Union",
      "lng": -12.42863,
      "lat": 34.75738,
      "liquidity": true
    },
    {
      "id": "6",
      "branchId": "1",
      "name": "CASTORS",
      "address": {
        "country": "SENEGAL",
        "region": "DAKAR",
        "postalCode": "700000",
        "streetAddress": "Sicap Dieuppeul II - Av. Bourguiba Castors",
        "location": {
          "lat": 14.72122,
          "lng": -17.44791
        }
      },
      "status": "ACTIF",
      "services": "Guichets automatique multifonction;Western Union",
      "lng": -17.44791,
      "lat": 14.72122,
      "liquidity": true
    },
    {
      "id": "7",
      "branchId": "1",
      "name": "CENTENAIRE",
      "address": {
        "country": "SENEGAL",
        "region": "DAKAR",
        "postalCode": "700000",
        "streetAddress": "Boulevard du Général De Gaulle",
        "location": {
          "lat": 14.68322,
          "lng": -17.44431
        }
      },
      "status": "ACTIF",
      "services": "Guichets automatique multifonction;Western Union",
      "lng": -17.44431,
      "lat": 14.68322,
      "liquidity": true
    },
    {
      "id": "8",
      "branchId": "1",
      "name": "DERKLE",
      "address": {
        "country": "SENEGAL",
        "region": "DAKAR",
        "postalCode": "700000",
        "streetAddress": "KHAR YALLA - Cité Asecna Derklé 1",
        "location": {
          "lat": 14.72774,
          "lng": -17.45229
        }
      },
      "status": "ACTIF",
      "services": "Guichets automatique multifonction;Western Union",
      "lng": -17.45229,
      "lat": 14.72774,
      "liquidity": true
    },
    {
      "id": "9",
      "branchId": "1",
      "name": "DIOURBEL",
      "address": {
        "country": "SENEGAL",
        "region": "DIOURBEL",
        "postalCode": "700000",
        "streetAddress": "Quartier escale",
        "location": {
          "lat": 14.65456,
          "lng": -16.23722
        }
      },
      "status": "ACTIF",
      "services": "Guichets automatique multifonction;Western Union",
      "lng": -16.23722,
      "lat": 14.65456,
      "liquidity": true
    },
    {
      "id": "10",
      "branchId": "1",
      "name": "GOLF",
      "address": {
        "country": "SENEGAL",
        "region": "DAKAR",
        "postalCode": "700000",
        "streetAddress": "Hamo 1 Lot K01 - Guédiawaye",
        "location": {
          "lat": 14.77051,
          "lng": -17.40833
        }
      },
      "status": "ACTIF",
      "services": "Guichets automatique multifonction;Western Union",
      "lng": -17.40833,
      "lat": 14.77051,
      "liquidity": true
    },
    {
      "id": "11",
      "branchId": "1",
      "name": "GRAND MEDINE",
      "address": {
        "country": "SENEGAL",
        "region": "DAKAR",
        "postalCode": "700000",
        "streetAddress": "Villa n°600 Hlm Grand Médine",
        "location": {
          "lat": 14.75895,
          "lng": -17.44808
        }
      },
      "status": "ACTIF",
      "services": "Guichets automatique multifonction;Western Union",
      "lng": -17.44808,
      "lat": 14.75895,
      "liquidity": true
    },
    {
      "id": "12",
      "branchId": "1",
      "name": "GUEDIAWAYE",
      "address": {
        "country": "SENEGAL",
        "region": "DAKAR",
        "postalCode": "700000",
        "streetAddress": "GUEDIAWAYE NDIAREME Quartier Marché Ndiarème",
        "location": {
          "lat": 14.78065,
          "lng": -17.38098
        }
      },
      "status": "ACTIF",
      "services": "Guichets automatique multifonction;Western Union",
      "lng": -17.38098,
      "lat": 14.78065,
      "liquidity": true
    },
    {
      "id": "13",
      "branchId": "1",
      "name": "HANN MARISTE",
      "address": {
        "country": "SENEGAL",
        "region": "DAKAR",
        "postalCode": "700000",
        "streetAddress": "HANN Cité Immorama villa n°2",
        "location": {
          "lat": 14.73373,
          "lng": -17.4341
        }
      },
      "status": "ACTIF",
      "services": "Guichets automatique multifonction;Western Union",
      "lng": -17.4341,
      "lat": 14.73373,
      "liquidity": true
    },
    {
      "id": "14",
      "branchId": "1",
      "name": "HLM 6",
      "address": {
        "country": "SENEGAL",
        "region": "DAKAR",
        "postalCode": "700000",
        "streetAddress": "hlm 6 - Dakar",
        "location": {
          "lat": 14.70363,
          "lng": -17.44661
        }
      },
      "status": "ACTIF",
      "services": "Guichets automatique multifonction;Western Union",
      "lng": -17.44661,
      "lat": 14.70363,
      "liquidity": true
    },
    {
      "id": "15",
      "branchId": "1",
      "name": "KAOLACK",
      "address": {
        "country": "SENEGAL",
        "region": "KAOLACK",
        "postalCode": "700000",
        "streetAddress": "Av. J.F. Kennedy - BP 59",
        "location": {
          "lat": 14.135107,
          "lng": -16.072264
        }
      },
      "status": "ACTIF",
      "services": "Guichets automatique multifonction;Western Union",
      "lng": -16.072264,
      "lat": 14.135107,
      "liquidity": true
    },
    {
      "id": "16",
      "branchId": "1",
      "name": "KEUR MASSAR",
      "address": {
        "country": "SENEGAL",
        "region": "DAKAR",
        "postalCode": "700000",
        "streetAddress": "Institut Biblique Sénégalais de Keur Massar (face Station Shell)",
        "location": {
          "lat": 14.786368,
          "lng": -17.311941
        }
      },
      "status": "ACTIF",
      "services": "Guichets automatique multifonction;Western Union",
      "lng": -17.311941,
      "lat": 14.786368,
      "liquidity": true
    },
    {
      "id": "17",
      "branchId": "1",
      "name": "KOLDA",
      "address": {
        "country": "SENEGAL",
        "region": "KOLDA",
        "postalCode": "700000",
        "streetAddress": "Rue 20 en face Salle des Fêtes",
        "location": {
          "lat": 12.88887,
          "lng": -14.93946
        }
      },
      "status": "ACTIF",
      "services": "Guichets automatique multifonction;Western Union",
      "lng": -14.93946,
      "lat": 12.88887,
      "liquidity": true
    },
    {
      "id": "18",
      "branchId": "1",
      "name": "LAMINE GUEYE",
      "address": {
        "country": "SENEGAL",
        "region": "DAKAR",
        "postalCode": "700000",
        "streetAddress": "Av. Pdt. Lamine Gueye x Faidherbe",
        "location": {
          "lat": 14.67526,
          "lng": -17.43743
        }
      },
      "status": "ACTIF",
      "services": "Guichets automatique multifonction;Western Union",
      "lng": -17.43743,
      "lat": 14.67526,
      "liquidity": true
    },
    {
      "id": "19",
      "branchId": "1",
      "name": "LIBERTE V",
      "address": {
        "country": "SENEGAL",
        "region": "DAKAR",
        "postalCode": "700000",
        "streetAddress": "Terminus Liberté V",
        "location": {
          "lat": 14.72304,
          "lng": -17.45777
        }
      },
      "status": "ACTIF",
      "services": "Guichets automatique multifonction;Western Union",
      "lng": -17.45777,
      "lat": 14.72304,
      "liquidity": true
    },
    {
      "id": "20",
      "branchId": "1",
      "name": "LOUGA",
      "address": {
        "country": "SENEGAL",
        "region": "LOUGA",
        "postalCode": "700000",
        "streetAddress": "Av. El Hadji Malick Sy",
        "location": {
          "lat": 15.62065,
          "lng": -16.22243
        }
      },
      "status": "ACTIF",
      "services": "Guichets automatique multifonction;Western Union",
      "lng": -16.22243,
      "lat": 15.62065,
      "liquidity": true
    },
    {
      "id": "21",
      "branchId": "1",
      "name": "MALICK SY",
      "address": {
        "country": "SENEGAL",
        "region": "DAKAR",
        "postalCode": "700000",
        "streetAddress": "Ex Station Shell, avenue Blaise Diagne x Faidherbe",
        "location": {
          "lat": 14.67699,
          "lng": -17.44537
        }
      },
      "status": "ACTIF",
      "services": "Guichets automatique multifonction;Western Union",
      "lng": -17.44537,
      "lat": 14.67699,
      "liquidity": true
    },
    {
      "id": "22",
      "branchId": "1",
      "name": "MBOUR",
      "address": {
        "country": "SENEGAL",
        "region": "THIES",
        "postalCode": "700000",
        "streetAddress": "Avenue Serigne A. Bamba X Demba Diop, Lot N°39/ Quartier Escale",
        "location": {
          "lat": 14.40989,
          "lng": -16.96471
        }
      },
      "status": "ACTIF",
      "services": "Guichets automatique multifonction;Western Union",
      "lng": -16.96471,
      "lat": 14.40989,
      "liquidity": true
    },
    {
      "id": "23",
      "branchId": "1",
      "name": "OUAKAM",
      "address": {
        "country": "SENEGAL",
        "region": "DAKAR",
        "postalCode": "700000",
        "streetAddress": "Route de Ouakam  X Tally Américain",
        "location": {
          "lat": 14.71801,
          "lng": -17.48684
        }
      },
      "status": "ACTIF",
      "services": "Guichets automatique multifonction;Western Union",
      "lng": -17.48684,
      "lat": 14.71801,
      "liquidity": true
    },
    {
      "id": "24",
      "branchId": "1",
      "name": "PIKINE TALLY BOU MAK",
      "address": {
        "country": "SENEGAL",
        "region": "DAKAR",
        "postalCode": "700000",
        "streetAddress": "PikineTally Bou Mak",
        "location": {
          "lat": 14.7589445,
          "lng": -17.393753
        }
      },
      "status": "ACTIF",
      "services": "Guichets automatique multifonction;Western Union",
      "lng": -17.393753,
      "lat": 14.7589445,
      "liquidity": true
    },
    {
      "id": "25",
      "branchId": "1",
      "name": "POINT- E",
      "address": {
        "country": "SENEGAL",
        "region": "DAKAR",
        "postalCode": "700000",
        "streetAddress": "Boulevard de l'Est",
        "location": {
          "lat": 14.695763,
          "lng": -17.457817
        }
      },
      "status": "ACTIF",
      "services": "Guichets automatique multifonction;Western Union",
      "lng": -17.457817,
      "lat": 14.695763,
      "liquidity": true
    },
    {
      "id": "26",
      "branchId": "1",
      "name": "POMPIDOU",
      "address": {
        "country": "SENEGAL",
        "region": "DAKAR",
        "postalCode": "700000",
        "streetAddress": "Pompidou X Raffanel, Immeube Yoro Lam",
        "location": {
          "lat": 14.669881,
          "lng": -17.435886
        }
      },
      "status": "ACTIF",
      "services": "Guichets automatique multifonction;Western Union",
      "lng": -17.435886,
      "lat": 14.669881,
      "liquidity": true
    },
    {
      "id": "27",
      "branchId": "1",
      "name": "ROUME 14",
      "address": {
        "country": "SENEGAL",
        "region": "DAKAR",
        "postalCode": "700000",
        "streetAddress": "19 av, Léopold Sedar Senghor",
        "location": {
          "lat": 14.6668,
          "lng": -17.432621
        }
      },
      "status": "ACTIF",
      "services": "Guichets automatique multifonction;Western Union",
      "lng": -17.432621,
      "lat": 14.6668,
      "liquidity": true
    },
    {
      "id": "28",
      "branchId": "1",
      "name": "ROUME I",
      "address": {
        "country": "SENEGAL",
        "region": "DAKAR",
        "postalCode": "700000",
        "streetAddress": "19 av, Léopold Sedar Senghor",
        "location": {
          "lat": 14.6668,
          "lng": -17.432621
        }
      },
      "status": "ACTIF",
      "services": "Guichets automatique multifonction;Western Union",
      "lng": -17.432621,
      "lat": 14.6668,
      "liquidity": true
    },
    {
      "id": "29",
      "branchId": "1",
      "name": "ROUME PERSONNEL",
      "address": {
        "country": "SENEGAL",
        "region": "DAKAR",
        "postalCode": "700000",
        "streetAddress": "19 av, Léopold Sedar Senghor",
        "location": {
          "lat": 14.6668,
          "lng": -17.432621
        }
      },
      "status": "ACTIF",
      "services": "Guichets automatique multifonction;Western Union",
      "lng": -17.432621,
      "lat": 14.6668,
      "liquidity": true
    },
    {
      "id": "30",
      "branchId": "1",
      "name": "RUFISQUE",
      "address": {
        "country": "SENEGAL",
        "region": "DAKAR",
        "postalCode": "700000",
        "streetAddress": "Bd Maurice Gueye",
        "location": {
          "lat": 14.716418,
          "lng": -17.274858
        }
      },
      "status": "ACTIF",
      "services": "Guichets automatique multifonction;Western Union",
      "lng": -17.274858,
      "lat": 14.716418,
      "liquidity": true
    },
    {
      "id": "31",
      "branchId": "1",
      "name": "SACRE COEUR",
      "address": {
        "country": "SENEGAL",
        "region": "DAKAR",
        "postalCode": "700000",
        "streetAddress": "Sacré Coeur 2 villa n°8609B",
        "location": {
          "lat": 14.71834,
          "lng": -17.465925
        }
      },
      "status": "ACTIF",
      "services": "Guichets automatique multifonction;Western Union",
      "lng": -17.465925,
      "lat": 14.71834,
      "liquidity": true
    },
    {
      "id": "32",
      "branchId": "1",
      "name": "SAINT LOUIS",
      "address": {
        "country": "SENEGAL",
        "region": "SAINT LOUIS",
        "postalCode": "700000",
        "streetAddress": "Av. du G. de Gaulle - Sor",
        "location": {
          "lat": 16.02451,
          "lng": -16.494148
        }
      },
      "status": "ACTIF",
      "services": "Guichets automatique multifonction;Western Union",
      "lng": -16.494148,
      "lat": 16.02451,
      "liquidity": true
    },
    {
      "id": "33",
      "branchId": "1",
      "name": "SALY PORTUDAL",
      "address": {
        "country": "SENEGAL",
        "region": "THIES",
        "postalCode": "700000",
        "streetAddress": "Place des Bougainvillées",
        "location": {
          "lat": 14.441964,
          "lng": -17.013899
        }
      },
      "status": "ACTIF",
      "services": "Guichets automatique multifonction;Western Union",
      "lng": -17.013899,
      "lat": 14.441964,
      "liquidity": true
    },
    {
      "id": "34",
      "branchId": "1",
      "name": "SICAP BAOBABS",
      "address": {
        "country": "SENEGAL",
        "region": "DAKAR",
        "postalCode": "700000",
        "streetAddress": "villa n°56 Sicap Baobabs",
        "location": {
          "lat": 14.707478,
          "lng": -17.460411
        }
      },
      "status": "ACTIF",
      "services": "Guichets automatique multifonction;Western Union",
      "lng": -17.460411,
      "lat": 14.707478,
      "liquidity": true
    },
    {
      "id": "35",
      "branchId": "1",
      "name": "STELE MERMOZ",
      "address": {
        "country": "SENEGAL",
        "region": "DAKAR",
        "postalCode": "700000",
        "streetAddress": "Rond point Stèle Mermoz - Route de Ouakam",
        "location": {
          "lat": 14.704014,
          "lng": -17.474976
        }
      },
      "status": "ACTIF",
      "services": "Guichets automatique multifonction;Western Union",
      "lng": -17.474976,
      "lat": 14.704014,
      "liquidity": true
    },
    {
      "id": "36",
      "branchId": "1",
      "name": "TAMBACOUNDA",
      "address": {
        "country": "SENEGAL",
        "region": "TAMBACOUNDA",
        "postalCode": "700000",
        "streetAddress": "Av. Pdt. L. Sédar Senghor",
        "location": {
          "lat": 13.771682,
          "lng": -13.66969
        }
      },
      "status": "ACTIF",
      "services": "Guichets automatique multifonction;Western Union",
      "lng": -13.66969,
      "lat": 13.771682,
      "liquidity": true
    },
    {
      "id": "37",
      "branchId": "1",
      "name": "THIAROYE",
      "address": {
        "country": "SENEGAL",
        "region": "DAKAR",
        "postalCode": "700000",
        "streetAddress": "THIAROYE GOUNASS - Parcelles n°71 Thiaroye Gare",
        "location": {
          "lat": 14.77055,
          "lng": -17.36353
        }
      },
      "status": "ACTIF",
      "services": "Guichets automatique multifonction;Western Union",
      "lng": -17.36353,
      "lat": 14.77055,
      "liquidity": true
    },
    {
      "id": "38",
      "branchId": "1",
      "name": "THIES",
      "address": {
        "country": "SENEGAL",
        "region": "THIES",
        "postalCode": "700000",
        "streetAddress": "Place de France",
        "location": {
          "lat": 14.79266,
          "lng": -16.925404
        }
      },
      "status": "ACTIF",
      "services": "Guichets automatique multifonction;Western Union",
      "lng": -16.925404,
      "lat": 14.79266,
      "liquidity": true
    },
    {
      "id": "39",
      "branchId": "1",
      "name": "TIVAOUANE",
      "address": {
        "country": "SENEGAL",
        "region": "THIES",
        "postalCode": "700000",
        "streetAddress": "Route Nationale N°2 (vers St-Louis)",
        "location": {
          "lat": 14.956764,
          "lng": -16.815342
        }
      },
      "status": "ACTIF",
      "services": "Guichets automatique multifonction;Western Union",
      "lng": -16.815342,
      "lat": 14.956764,
      "liquidity": true
    },
    {
      "id": "40",
      "branchId": "1",
      "name": "TOUBA",
      "address": {
        "country": "SENEGAL",
        "region": "DIOURBEL",
        "postalCode": "700000",
        "streetAddress": "Quartier Darou Marnane parcelle n° 1115",
        "location": {
          "lat": 14.841806,
          "lng": -15.88651
        }
      },
      "status": "ACTIF",
      "services": "Guichets automatique multifonction;Western Union",
      "lng": -15.88651,
      "lat": 14.841806,
      "liquidity": true
    },
    {
      "id": "41",
      "branchId": "1",
      "name": "YOFF",
      "address": {
        "country": "SENEGAL",
        "region": "DAKAR",
        "postalCode": "700000",
        "streetAddress": "YOFF SEYDINA L.LAYE- Route de l'aéroport",
        "location": {
          "lat": 14.755538,
          "lng": -17.46759
        }
      },
      "status": "ACTIF",
      "services": "Guichets automatique multifonction;Western Union",
      "lng": -17.46759,
      "lat": 14.755538,
      "liquidity": true
    },
    {
      "id": "42",
      "branchId": "1",
      "name": "ZIGUINCHOR",
      "address": {
        "country": "SENEGAL",
        "region": "ZIGUINCHOR",
        "postalCode": "700000",
        "streetAddress": "Rue de la Poste - BP 17",
        "location": {
          "lat": 12.587186,
          "lng": -16.271936
        }
      },
      "status": "ACTIF",
      "services": "Guichets automatique multifonction;Western Union",
      "lng": -16.271936,
      "lat": 12.587186,
      "liquidity": true
    },
    {
      "id": "43",
      "branchId": "1",
      "name": "ZONE INDUSTRIELLE",
      "address": {
        "country": "SENEGAL",
        "region": "DAKAR",
        "postalCode": "700000",
        "streetAddress": "Km 4,5 Route de Rufisque",
        "location": {
          "lat": 14.700849,
          "lng": -17.43702
        }
      },
      "status": "ACTIF",
      "services": "Guichets automatique multifonction;Western Union",
      "lng": -17.43702,
      "lat": 14.700849,
      "liquidity": true
    },
    {
      "id": "44",
      "branchId": "1",
      "name": "CENTRE COMMERCIAL SEA PLAZA",
      "address": {
        "country": "SENEGAL",
        "region": "DAKAR",
        "postalCode": "700000",
        "streetAddress": "Corniche Ouest (Entrée espace commercial)",
        "location": {
          "lat": 14.69323,
          "lng": -17.47426
        }
      },
      "status": "ACTIF",
      "services": "Guichets automatique multifonction;Western Union",
      "lng": -17.47426,
      "lat": 14.69323,
      "liquidity": true
    },
    {
      "id": "45",
      "branchId": "1",
      "name": "CAFE DE ROME",
      "address": {
        "country": "SENEGAL",
        "region": "DAKAR",
        "postalCode": "700000",
        "streetAddress": "BD de la République",
        "location": {
          "lat": 14.66542,
          "lng": -17.43572
        }
      },
      "status": "ACTIF",
      "services": "Guichets automatique multifonction;Western Union",
      "lng": -17.43572,
      "lat": 14.66542,
      "liquidity": true
    },
    {
      "id": "46",
      "branchId": "1",
      "name": "CENTRE COMMERCIAL DAKAR CITY",
      "address": {
        "country": "SENEGAL",
        "region": "DAKAR",
        "postalCode": "700000",
        "streetAddress": "Ngor Almadies",
        "location": {
          "lat": 14.74117,
          "lng": -17.51095
        }
      },
      "status": "ACTIF",
      "services": "Guichets automatique multifonction;Western Union",
      "lng": -17.51095,
      "lat": 14.74117,
      "liquidity": true
    },
    {
      "id": "47",
      "branchId": "1",
      "name": "CASINO SARRAULT",
      "address": {
        "country": "SENEGAL",
        "region": "DAKAR",
        "postalCode": "700000",
        "streetAddress": "Rue Mouhamed V (ex sarrault)",
        "location": {
          "lat": 14.66965,
          "lng": -17.42966
        }
      },
      "status": "ACTIF",
      "services": "Guichets automatique multifonction;Western Union",
      "lng": -17.42966,
      "lat": 14.66965,
      "liquidity": true
    },
    {
      "id": "48",
      "branchId": "1",
      "name": "AEROPORT LEOPOLD SEDAR SENGHOR",
      "address": {
        "country": "SENEGAL",
        "region": "DAKAR",
        "postalCode": "700000",
        "streetAddress": "Aéroport Léopold Sédar Senghor",
        "location": {
          "lat": 14.74608,
          "lng": -17.49052
        }
      },
      "status": "ACTIF",
      "services": "Guichets automatique multifonction;Western Union",
      "lng": -17.49052,
      "lat": 14.74608,
      "liquidity": true
    },
    {
      "id": "49",
      "branchId": "1",
      "name": "TOTAL  AUTOROUTIERE",
      "address": {
        "country": "SENEGAL",
        "region": "DAKAR",
        "postalCode": "700000",
        "streetAddress": "Autoroute de l'avenir",
        "location": {
          "lat": 14.74571,
          "lng": -17.41722
        }
      },
      "status": "ACTIF",
      "services": "Guichets automatique multifonction;Western Union",
      "lng": -17.41722,
      "lat": 14.74571,
      "liquidity": true
    },
    {
      "id": "50",
      "branchId": "1",
      "name": "HOTEL TERROU BI",
      "address": {
        "country": "SENEGAL",
        "region": "DAKAR",
        "postalCode": "700000",
        "streetAddress": "Corniche Ouest Bd Martin Luther King",
        "location": {
          "lat": 14.67743,
          "lng": -17.46674
        }
      },
      "status": "ACTIF",
      "services": "Guichets automatique multifonction;Western Union",
      "lng": -17.46674,
      "lat": 14.67743,
      "liquidity": true
    },
    {
      "id": "51",
      "branchId": "1",
      "name": "BASE MILITAIRE EFS",
      "address": {
        "country": "SENEGAL",
        "region": "DAKAR",
        "postalCode": "700000",
        "streetAddress": "Quartier Geille, Route de Ouakam",
        "location": {
          "lat": 14.71387,
          "lng": -17.48184
        }
      },
      "status": "ACTIF",
      "services": "Guichets automatique multifonction;Western Union",
      "lng": -17.48184,
      "lat": 14.71387,
      "liquidity": true
    },
    {
      "id": "52",
      "branchId": "1",
      "name": "CASINO DU CAP VERT",
      "address": {
        "country": "SENEGAL",
        "region": "DAKAR",
        "postalCode": "700000",
        "streetAddress": " ROUTE DE NGOR",
        "location": {
          "lat": 14.75104,
          "lng": -17.50276
        }
      },
      "status": "ACTIF",
      "services": "Guichets automatique multifonction;Western Union",
      "lng": -17.50276,
      "lat": 14.75104,
      "liquidity": true
    },
    {
      "id": "53",
      "branchId": "1",
      "name": "EMBARCADERE DE DAKAR ",
      "address": {
        "country": "SENEGAL",
        "region": "DAKAR",
        "postalCode": "700000",
        "streetAddress": "21, boulevard de la libération",
        "location": {
          "lat": 14.67409,
          "lng": -17.43112
        }
      },
      "status": "ACTIF",
      "services": "Guichets automatique multifonction;Western Union",
      "lng": -17.43112,
      "lat": 14.67409,
      "liquidity": true
    },
    {
      "id": "54",
      "branchId": "1",
      "name": "GCO DIOGO GRANDE COTE OPERATION",
      "address": {
        "country": "SENEGAL",
        "region": "THIES",
        "postalCode": "700000",
        "streetAddress": "DIOGO",
        "location": {
          "lat": 15.30123,
          "lng": -16.82642
        }
      },
      "status": "ACTIF",
      "services": "Guichets automatique multifonction;Western Union",
      "lng": -16.82642,
      "lat": 15.30123,
      "liquidity": true
    }
  ],
  "branches": [
    {
      "id": "1",
      "agencyId": "1",
      "name": "AGENCE GRAND YOFF",
      "address": {
        "country": "SENEGAL",
        "region": "Dakar",
        "postalCode": "700000",
        "streetAddress": "Grand Yoff",
        "location": {
          "lat": 14.73295,
          "lng": -17.45616
        }
      },
      "phoneNumber": "33 827 95 92",
      "fax": "33 827 95 92",
      "isDab": true,
      "status": "ACTIVE",
      "openingHours": "10:00 - 19:00;10:00 - 22:00",
      "services": "Wester union;M-Wallet",
      "lng": -17.45616,
      "lat": 14.73295
    },
    {
      "id": "2",
      "agencyId": "2",
      "name": "ALMADIES DAB",
      "address": {
        "country": "SENEGAL",
        "region": "Dakar",
        "postalCode": "700000",
        "streetAddress": "Route de NgorXRoute du Meridien",
        "location": {
          "lat": 14.73695,
          "lng": -17.50932
        }
      },
      "phoneNumber": "33 829 54 05",
      "fax": "33 829 54 05",
      "isDab": true,
      "status": "ACTIVE",
      "openingHours": "10:00 - 19:00;10:00 - 22:00",
      "services": "Wester union;M-Wallet",
      "lng": -17.50932,
      "lat": 14.73695
    },
    {
      "id": "3",
      "agencyId": "3",
      "name": "AUTOPORT",
      "address": {
        "country": "SENEGAL",
        "region": "Dakar",
        "postalCode": "700000",
        "streetAddress": "Boulevard de la Libération en face Embarcadaire de Gorée",
        "location": {
          "lat": 14.67416,
          "lng": -17.43213
        }
      },
      "phoneNumber": "33 822 78 91",
      "fax": "33 822 78 91",
      "isDab": true,
      "status": "ACTIVE",
      "openingHours": "10:00 - 19:00;10:00 - 22:00",
      "services": "Wester union;M-Wallet",
      "lng": -17.43213,
      "lat": 14.67416
    },
    {
      "id": "4",
      "agencyId": "4",
      "name": "BOURGUIBA CASTORS",
      "address": {
        "country": "SENEGAL",
        "region": "Dakar",
        "postalCode": "700000",
        "streetAddress": "Sicap Dieuppeul II - Avenue Bourguiba Castors",
        "location": {
          "lat": 14.72122,
          "lng": -17.44791
        }
      },
      "phoneNumber": "33 865 02 00",
      "fax": "33 865 02 00",
      "isDab": true,
      "status": "ACTIVE",
      "openingHours": "10:00 - 19:00;10:00 - 22:00",
      "services": "Wester union;M-Wallet",
      "lng": -17.44791,
      "lat": 14.72122
    },
    {
      "id": "5",
      "agencyId": "5",
      "name": "CAMBERENE",
      "address": {
        "country": "SENEGAL",
        "region": "Dakar",
        "postalCode": "700000",
        "streetAddress": "Case des Parcelles Assainies",
        "location": {
          "lat": 14.75738,
          "lng": -17.42863
        }
      },
      "phoneNumber": "33 879 21 21",
      "fax": "33 879 21 21",
      "isDab": true,
      "status": "ACTIVE",
      "openingHours": "10:00 - 19:00;10:00 - 22:00",
      "services": "Wester union;M-Wallet",
      "lng": -17.42863,
      "lat": 14.75738
    },
    {
      "id": "6",
      "agencyId": "6",
      "name": "CENTENAIRE",
      "address": {
        "country": "SENEGAL",
        "region": "Dakar",
        "postalCode": "700000",
        "streetAddress": "Boulevard Général De Gaulle",
        "location": {
          "lat": 14.68322,
          "lng": -17.44431
        }
      },
      "phoneNumber": "33 889 71 94",
      "fax": "33 889 71 94",
      "isDab": true,
      "status": "ACTIVE",
      "openingHours": "10:00 - 19:00;10:00 - 22:00",
      "services": "Wester union;M-Wallet",
      "lng": -17.44431,
      "lat": 14.68322
    },
    {
      "id": "7",
      "agencyId": "7",
      "name": "DERKLE",
      "address": {
        "country": "SENEGAL",
        "region": "Dakar",
        "postalCode": "700000",
        "streetAddress": "Cité Asecna Derklé N°1",
        "location": {
          "lat": 14.72774,
          "lng": -17.45229
        }
      },
      "phoneNumber": "33 864 04 84",
      "fax": "33 864 04 84",
      "isDab": true,
      "status": "ACTIVE",
      "openingHours": "10:00 - 19:00;10:00 - 22:00",
      "services": "Wester union;M-Wallet",
      "lng": -17.45229,
      "lat": 14.72774
    },
    {
      "id": "8",
      "agencyId": "8",
      "name": "DIOURBEL",
      "address": {
        "country": "SENEGAL",
        "region": "Diourbel",
        "postalCode": "700000",
        "streetAddress": "Quartier Escale",
        "location": {
          "lat": 14.65456,
          "lng": -16.23722
        }
      },
      "phoneNumber": "33 971 55 15/17",
      "fax": "33 971 55 15/17",
      "isDab": true,
      "status": "ACTIVE",
      "openingHours": "10:00 - 19:00;10:00 - 22:00",
      "services": "Wester union;M-Wallet",
      "lng": -16.23722,
      "lat": 14.65456
    },
    {
      "id": "9",
      "agencyId": "9",
      "name": "GRAND MEDINE ",
      "address": {
        "country": "SENEGAL",
        "region": "Dakar",
        "postalCode": "700000",
        "streetAddress": "Villa n° 600 Hlm Grand Médine ",
        "location": {
          "lat": 14.75895,
          "lng": -17.44808
        }
      },
      "phoneNumber": "33 835 86 11",
      "fax": "33 835 86 11",
      "isDab": true,
      "status": "ACTIVE",
      "openingHours": "10:00 - 19:00;10:00 - 22:00",
      "services": "Wester union;M-Wallet",
      "lng": -17.44808,
      "lat": 14.75895
    },
    {
      "id": "10",
      "agencyId": "10",
      "name": "GUEDIAWAYE",
      "address": {
        "country": "SENEGAL",
        "region": "Dakar",
        "postalCode": "700000",
        "streetAddress": "Maarif",
        "location": {
          "lat": 14.78065,
          "lng": -17.38098
        }
      },
      "phoneNumber": "33 877 67 54",
      "fax": "33 877 67 54",
      "isDab": true,
      "status": "ACTIVE",
      "openingHours": "10:00 - 19:00;10:00 - 22:00",
      "services": "Wester union;M-Wallet",
      "lng": -17.38098,
      "lat": 14.78065
    },
    {
      "id": "11",
      "agencyId": "11",
      "name": "HANN MARISTES",
      "address": {
        "country": "SENEGAL",
        "region": "Dakar",
        "postalCode": "700000",
        "streetAddress": "Hann Cité Immoramma villa N°2",
        "location": {
          "lat": 14.73373,
          "lng": -17.4341
        }
      },
      "phoneNumber": "33 832 49 12",
      "fax": "33 832 49 12",
      "isDab": true,
      "status": "ACTIVE",
      "openingHours": "10:00 - 19:00;10:00 - 22:00",
      "services": "Wester union;M-Wallet",
      "lng": -17.4341,
      "lat": 14.73373
    },
    {
      "id": "12",
      "agencyId": "12",
      "name": "KAOLACK",
      "address": {
        "country": "SENEGAL",
        "region": "Kaolack",
        "postalCode": "700000",
        "streetAddress": "Avenue J. Kennedy",
        "location": {
          "lat": 14.135107,
          "lng": -16.072264
        }
      },
      "phoneNumber": "33 941 11 88",
      "fax": "33 941 11 88",
      "isDab": true,
      "status": "ACTIVE",
      "openingHours": "10:00 - 19:00;10:00 - 22:00",
      "services": "Wester union;M-Wallet",
      "lng": -16.072264,
      "lat": 14.135107
    },
    {
      "id": "13",
      "agencyId": "13",
      "name": "KEUR MASSAR",
      "address": {
        "country": "SENEGAL",
        "region": "Dakar",
        "postalCode": "700000",
        "streetAddress": "Institut Bliblique Keur Massar",
        "location": {
          "lat": 14.786368,
          "lng": -17.311941
        }
      },
      "phoneNumber": "33 878 06 06",
      "fax": "33 878 06 06",
      "isDab": true,
      "status": "ACTIVE",
      "openingHours": "10:00 - 19:00;10:00 - 22:00",
      "services": "Wester union;M-Wallet",
      "lng": -17.311941,
      "lat": 14.786368
    },
    {
      "id": "14",
      "agencyId": "14",
      "name": "KOLDA",
      "address": {
        "country": "SENEGAL",
        "region": "Dakar",
        "postalCode": "700000",
        "streetAddress": "Rue 20",
        "location": {
          "lat": 12.88887,
          "lng": -14.93946
        }
      },
      "phoneNumber": "33 996 11 61",
      "fax": "33 996 11 61",
      "isDab": true,
      "status": "ACTIVE",
      "openingHours": "10:00 - 19:00;10:00 - 22:00",
      "services": "Wester union;M-Wallet",
      "lng": -14.93946,
      "lat": 12.88887
    },
    {
      "id": "15",
      "agencyId": "15",
      "name": "LAMINE GUEYE",
      "address": {
        "country": "SENEGAL",
        "region": "Dakar",
        "postalCode": "700000",
        "streetAddress": "Avenue Lamine Gueye",
        "location": {
          "lat": 14.67526,
          "lng": -17.43743
        }
      },
      "phoneNumber": "33 839 57 49",
      "fax": "33 839 57 49",
      "isDab": true,
      "status": "ACTIVE",
      "openingHours": "10:00 - 19:00;10:00 - 22:00",
      "services": "Wester union;M-Wallet",
      "lng": -17.43743,
      "lat": 14.67526
    },
    {
      "id": "16",
      "agencyId": "16",
      "name": "LIBERTE 5",
      "address": {
        "country": "SENEGAL",
        "region": "Louga",
        "postalCode": "700000",
        "streetAddress": "Terminus Liberté 5",
        "location": {
          "lat": 14.72304,
          "lng": -17.45777
        }
      },
      "phoneNumber": "33 864 14 34",
      "fax": "33 864 14 34",
      "isDab": true,
      "status": "ACTIVE",
      "openingHours": "10:00 - 19:00;10:00 - 22:00",
      "services": "Wester union;M-Wallet",
      "lng": -17.45777,
      "lat": 14.72304
    },
    {
      "id": "17",
      "agencyId": "17",
      "name": "MALICK SY",
      "address": {
        "country": "SENEGAL",
        "region": "Dakar",
        "postalCode": "700000",
        "streetAddress": "Avenue El Hadji Malick SY",
        "location": {
          "lat": 15.62065,
          "lng": -16.22243
        }
      },
      "phoneNumber": "33 967 47 72",
      "fax": "33 967 47 72",
      "isDab": true,
      "status": "ACTIVE",
      "openingHours": "10:00 - 19:00;10:00 - 22:00",
      "services": "Wester union;M-Wallet",
      "lng": -16.22243,
      "lat": 15.62065
    },
    {
      "id": "18",
      "agencyId": "18",
      "name": "MBOUR",
      "address": {
        "country": "SENEGAL",
        "region": "Thies",
        "postalCode": "700000",
        "streetAddress": "Quartier Escale",
        "location": {
          "lat": 14.67699,
          "lng": -17.44537
        }
      },
      "phoneNumber": "33 939 54 44",
      "fax": "33 939 54 44",
      "isDab": true,
      "status": "ACTIVE",
      "openingHours": "10:00 - 19:00;10:00 - 22:00",
      "services": "Wester union;M-Wallet",
      "lng": -17.44537,
      "lat": 14.67699
    },
    {
      "id": "19",
      "agencyId": "19",
      "name": "OUAKAM",
      "address": {
        "country": "SENEGAL",
        "region": "Dakar",
        "postalCode": "700000",
        "streetAddress": "Route de Ouakam x Tally Américain",
        "location": {
          "lat": 14.40989,
          "lng": -16.96471
        }
      },
      "phoneNumber": "33 869 83 83",
      "fax": "33 869 83 83",
      "isDab": true,
      "status": "ACTIVE",
      "openingHours": "10:00 - 19:00;10:00 - 22:00",
      "services": "Wester union;M-Wallet",
      "lng": -16.96471,
      "lat": 14.40989
    },
    {
      "id": "20",
      "agencyId": "20",
      "name": "PIKINE",
      "address": {
        "country": "SENEGAL",
        "region": "Dakar",
        "postalCode": "700000",
        "streetAddress": "Tally bou mak ",
        "location": {
          "lat": 14.7589445,
          "lng": -17.393753
        }
      },
      "phoneNumber": "339578191/90",
      "fax": "339578191/90",
      "isDab": true,
      "status": "ACTIVE",
      "openingHours": "10:00 - 19:00;10:00 - 22:00",
      "services": "Wester union;M-Wallet",
      "lng": -17.393753,
      "lat": 14.7589445
    },
    {
      "id": "21",
      "agencyId": "21",
      "name": "POINT CASH INDEPENDANCE",
      "address": {
        "country": "SENEGAL",
        "region": "Dakar",
        "postalCode": "700000",
        "streetAddress": "33 Rue Carnot x Place de l'Indépendance",
        "location": {
          "lat": 14.668046,
          "lng": -17.431593
        }
      },
      "phoneNumber": "33 839 55 00",
      "fax": "33 839 55 00",
      "isDab": true,
      "status": "ACTIVE",
      "openingHours": "10:00 - 19:00;10:00 - 22:00",
      "services": "Wester union;M-Wallet",
      "lng": -17.431593,
      "lat": 14.668046
    },
    {
      "id": "22",
      "agencyId": "22",
      "name": "POINT CASH KIRENE",
      "address": {
        "country": "SENEGAL",
        "region": "Dakar",
        "postalCode": "700000",
        "streetAddress": "KIRENE",
        "location": {
          "lat": 14.66857,
          "lng": -17.04233
        }
      },
      "phoneNumber": "339578191/90",
      "fax": "339578191/90",
      "isDab": true,
      "status": "ACTIVE",
      "openingHours": "10:00 - 19:00;10:00 - 22:00",
      "services": "Wester union;M-Wallet",
      "lng": -17.04233,
      "lat": 14.66857
    },
    {
      "id": "23",
      "agencyId": "23",
      "name": "POINT E",
      "address": {
        "country": "SENEGAL",
        "region": "Dakar",
        "postalCode": "700000",
        "streetAddress": "Boulevard de l'est ",
        "location": {
          "lat": 14.695763,
          "lng": -17.457817
        }
      },
      "phoneNumber": "33 839 57 51",
      "fax": "33 839 57 51",
      "isDab": true,
      "status": "ACTIVE",
      "openingHours": "10:00 - 19:00;10:00 - 22:00",
      "services": "Wester union;M-Wallet",
      "lng": -17.457817,
      "lat": 14.695763
    },
    {
      "id": "24",
      "agencyId": "24",
      "name": "POMPIDOU",
      "address": {
        "country": "SENEGAL",
        "region": "Dakar",
        "postalCode": "700000",
        "streetAddress": "Pompidou x Raffanel, Immeuble Yoro LAM  ",
        "location": {
          "lat": 14.669881,
          "lng": -17.435886
        }
      },
      "phoneNumber": "33 889 71 84",
      "fax": "33 889 71 84",
      "isDab": true,
      "status": "ACTIVE",
      "openingHours": "10:00 - 19:00;10:00 - 22:00",
      "services": "Wester union;M-Wallet",
      "lng": -17.435886,
      "lat": 14.669881
    },
    {
      "id": "25",
      "agencyId": "25",
      "name": "ROUME ENTREPRISES",
      "address": {
        "country": "SENEGAL",
        "region": "Dakar",
        "postalCode": "700000",
        "streetAddress": "19 Avenue Senghor ",
        "location": {
          "lat": 14.659957,
          "lng": -17.43605
        }
      },
      "phoneNumber": "33 839 55 00",
      "fax": "33 839 55 00",
      "isDab": true,
      "status": "ACTIVE",
      "openingHours": "10:00 - 19:00;10:00 - 22:00",
      "services": "Wester union;M-Wallet",
      "lng": -17.43605,
      "lat": 14.659957
    },
    {
      "id": "26",
      "agencyId": "26",
      "name": "ROUME PARTICULIERS",
      "address": {
        "country": "SENEGAL",
        "region": "Dakar",
        "postalCode": "700000",
        "streetAddress": "19 Avenue Senghor ",
        "location": {
          "lat": 14.659957,
          "lng": -17.43605
        }
      },
      "phoneNumber": "33 839 55 00",
      "fax": "33 839 55 00",
      "isDab": true,
      "status": "ACTIVE",
      "openingHours": "10:00 - 19:00;10:00 - 22:00",
      "services": "Wester union;M-Wallet",
      "lng": -17.43605,
      "lat": 14.659957
    },
    {
      "id": "27",
      "agencyId": "27",
      "name": "SALY",
      "address": {
        "country": "SENEGAL",
        "region": "Dakar",
        "postalCode": "700000",
        "streetAddress": "Place des Bougainvilliers ",
        "location": {
          "lat": 14.441964,
          "lng": -17.013899
        }
      },
      "phoneNumber": "33 939 70 90",
      "fax": "33 939 70 90",
      "isDab": true,
      "status": "ACTIVE",
      "openingHours": "10:00 - 19:00;10:00 - 22:00",
      "services": "Wester union;M-Wallet",
      "lng": -17.013899,
      "lat": 14.441964
    },
    {
      "id": "28",
      "agencyId": "28",
      "name": "RUFISQUE",
      "address": {
        "country": "SENEGAL",
        "region": "Dakar",
        "postalCode": "700000",
        "streetAddress": "Boulevard Maurice Gueye ",
        "location": {
          "lat": 14.716418,
          "lng": -17.274858
        }
      },
      "phoneNumber": "33 839 87 40",
      "fax": "33 839 87 40",
      "isDab": true,
      "status": "ACTIVE",
      "openingHours": "10:00 - 19:00;10:00 - 22:00",
      "services": "Wester union;M-Wallet",
      "lng": -17.274858,
      "lat": 14.716418
    },
    {
      "id": "29",
      "agencyId": "29",
      "name": "SACRE COEUR",
      "address": {
        "country": "SENEGAL",
        "region": "Dakar",
        "postalCode": "700000",
        "streetAddress": "Villa N°8609 Sacré Coeur 2",
        "location": {
          "lat": 14.71834,
          "lng": -17.465925
        }
      },
      "phoneNumber": "33 839 71 51",
      "fax": "33 839 71 51",
      "isDab": true,
      "status": "ACTIVE",
      "openingHours": "10:00 - 19:00;10:00 - 22:00",
      "services": "Wester union;M-Wallet",
      "lng": -17.465925,
      "lat": 14.71834
    },
    {
      "id": "30",
      "agencyId": "30",
      "name": "SAINT LOUIS",
      "address": {
        "country": "SENEGAL",
        "region": "Dakar",
        "postalCode": "700000",
        "streetAddress": "Avenue du Général De Gaulle",
        "location": {
          "lat": 16.02451,
          "lng": -16.494148
        }
      },
      "phoneNumber": "33 938 23 10",
      "fax": "33 938 23 10",
      "isDab": true,
      "status": "ACTIVE",
      "openingHours": "10:00 - 19:00;10:00 - 22:00",
      "services": "Wester union;M-Wallet",
      "lng": -16.494148,
      "lat": 16.02451
    },
    {
      "id": "31",
      "agencyId": "31",
      "name": "SICAP BAOBABS",
      "address": {
        "country": "SENEGAL",
        "region": "Dakar",
        "postalCode": "700000",
        "streetAddress": "Villa n°569 Sicap Baobabs",
        "location": {
          "lat": 14.707478,
          "lng": -17.460411
        }
      },
      "phoneNumber": "33 864 40 25",
      "fax": "33 864 40 25",
      "isDab": true,
      "status": "ACTIVE",
      "openingHours": "10:00 - 19:00;10:00 - 22:00",
      "services": "Wester union;M-Wallet",
      "lng": -17.460411,
      "lat": 14.707478
    },
    {
      "id": "32",
      "agencyId": "32",
      "name": "STELE MERMOZ",
      "address": {
        "country": "SENEGAL",
        "region": "Dakar",
        "postalCode": "700000",
        "streetAddress": "Rond Point Stelle Mermoz - Route de Ouakam",
        "location": {
          "lat": 14.704014,
          "lng": -14.704014
        }
      },
      "phoneNumber": "33 860 22 70/73",
      "fax": "33 860 22 70/73",
      "isDab": true,
      "status": "ACTIVE",
      "openingHours": "10:00 - 19:00;10:00 - 22:00",
      "services": "Wester union;M-Wallet",
      "lng": -14.704014,
      "lat": 14.704014
    },
    {
      "id": "33",
      "agencyId": "33",
      "name": "TAMBACOUNDA",
      "address": {
        "country": "SENEGAL",
        "region": "Tambacounda",
        "postalCode": "700000",
        "streetAddress": "Avenue Leopold Sedar Senghor",
        "location": {
          "lat": 13.771682,
          "lng": -13.66969
        }
      },
      "phoneNumber": "33 938 23 10",
      "fax": "33 938 23 10",
      "isDab": true,
      "status": "ACTIVE",
      "openingHours": "10:00 - 19:00;10:00 - 22:00",
      "services": "Wester union;M-Wallet",
      "lng": -13.66969,
      "lat": 13.771682
    },
    {
      "id": "34",
      "agencyId": "34",
      "name": "THIAROYE",
      "address": {
        "country": "SENEGAL",
        "region": "Dakar",
        "postalCode": "700000",
        "streetAddress": "Arrêt keur Thierno Ndiaye",
        "location": {
          "lat": 14.77055,
          "lng": -17.36353
        }
      },
      "phoneNumber": "33 878 63 70/72",
      "fax": "33 878 63 70/72",
      "isDab": true,
      "status": "ACTIVE",
      "openingHours": "10:00 - 19:00;10:00 - 22:00",
      "services": "Wester union;M-Wallet",
      "lng": -17.36353,
      "lat": 14.77055
    },
    {
      "id": "35",
      "agencyId": "35",
      "name": "THIES",
      "address": {
        "country": "SENEGAL",
        "region": "thies",
        "postalCode": "700000",
        "streetAddress": "Avenue Leopold Senghor",
        "location": {
          "lat": 14.79266,
          "lng": -16.925404
        }
      },
      "phoneNumber": "33 951 82 25",
      "fax": "33 951 82 25",
      "isDab": true,
      "status": "ACTIVE",
      "openingHours": "10:00 - 19:00;10:00 - 22:00",
      "services": "Wester union;M-Wallet",
      "lng": -16.925404,
      "lat": 14.79266
    },
    {
      "id": "36",
      "agencyId": "36",
      "name": "THIIES RANDOULENE",
      "address": {
        "country": "SENEGAL",
        "region": "thies",
        "postalCode": "700000",
        "streetAddress": "Sud 1ère tranche",
        "location": {
          "lat": 14.779495,
          "lng": -16.924286
        }
      },
      "phoneNumber": "33 952 05 25",
      "fax": "33 952 05 25",
      "isDab": true,
      "status": "ACTIVE",
      "openingHours": "10:00 - 19:00;10:00 - 22:00",
      "services": "Wester union;M-Wallet",
      "lng": -16.924286,
      "lat": 14.779495
    },
    {
      "id": "37",
      "agencyId": "37",
      "name": "TIVAOUANE",
      "address": {
        "country": "SENEGAL",
        "region": "thies",
        "postalCode": "700000",
        "streetAddress": "Route Nationale 2 (vers Saint LYess)",
        "location": {
          "lat": 14.956764,
          "lng": -16.815342
        }
      },
      "phoneNumber": "33 955 33 83",
      "fax": "33 955 33 83",
      "isDab": true,
      "status": "ACTIVE",
      "openingHours": "10:00 - 19:00;10:00 - 22:00",
      "services": "Wester union;M-Wallet",
      "lng": -16.815342,
      "lat": 14.956764
    },
    {
      "id": "38",
      "agencyId": "38",
      "name": "TOUBA",
      "address": {
        "country": "SENEGAL",
        "region": "Diourbel",
        "postalCode": "700000",
        "streetAddress": "Quartier Darou Marnane",
        "location": {
          "lat": 14.841806,
          "lng": -15.88651
        }
      },
      "phoneNumber": "33 976 91 92",
      "fax": "33 976 91 92",
      "isDab": true,
      "status": "ACTIVE",
      "openingHours": "10:00 - 19:00;10:00 - 22:00",
      "services": "Wester union;M-Wallet",
      "lng": -15.88651,
      "lat": 14.841806
    },
    {
      "id": "39",
      "agencyId": "39",
      "name": "YOFF",
      "address": {
        "country": "SENEGAL",
        "region": "Dakar",
        "postalCode": "700000",
        "streetAddress": "Route de l'aéroport x route des Cimetiares",
        "location": {
          "lat": 14.755538,
          "lng": -17.46759
        }
      },
      "phoneNumber": "33 869 92 84",
      "fax": "33 869 92 84",
      "isDab": true,
      "status": "ACTIVE",
      "openingHours": "10:00 - 19:00;10:00 - 22:00",
      "services": "Wester union;M-Wallet",
      "lng": -17.46759,
      "lat": 14.755538
    },
    {
      "id": "40",
      "agencyId": "40",
      "name": "ZIGUINCHOR",
      "address": {
        "country": "SENEGAL",
        "region": "Dakar",
        "postalCode": "700000",
        "streetAddress": "Rue de la Poste",
        "location": {
          "lat": 12.587186,
          "lng": -16.271936
        }
      },
      "phoneNumber": "33 991 12 92",
      "fax": "33 991 12 92",
      "isDab": true,
      "status": "ACTIVE",
      "openingHours": "10:00 - 19:00;10:00 - 22:00",
      "services": "Wester union;M-Wallet",
      "lng": -16.271936,
      "lat": 12.587186
    },
    {
      "id": "41",
      "agencyId": "41",
      "name": "ZONE INDUSTRIELLE",
      "address": {
        "country": "SENEGAL",
        "region": "Dakar",
        "postalCode": "700000",
        "streetAddress": "Km 4 Route de Rufisque",
        "location": {
          "lat": 14.700849,
          "lng": -17.43702
        }
      },
      "phoneNumber": "33 839 57 10",
      "fax": "33 839 57 10",
      "isDab": true,
      "status": "ACTIVE",
      "openingHours": "10:00 - 19:00;10:00 - 22:00",
      "services": "Wester union;M-Wallet",
      "lng": -17.43702,
      "lat": 14.700849
    }
  ]
}
